City_ID,City,Lat,Lng,Max Temp,Humidity,Cloudiness,Wind Speed,Country,Date
0,aasiaat,68.7098,-52.8699,2.89,92,100,0.59,GL,1689531991
1,wuchang,44.9143,127.15,17.61,99,100,3.35,CN,1689531992
2,ust-nera,64.5667,143.2,9.24,85,44,3.59,RU,1689531992
3,edinburgh of the seven seas,-37.0676,-12.3116,13.13,78,17,13.0,SH,1689531992
4,wad medani,14.4012,33.5199,33.44,37,23,4.93,SD,1689531993
5,alibag,18.6411,72.8792,26.04,85,100,5.14,IN,1689531993
6,susuman,62.7833,148.1667,14.66,86,46,2.13,RU,1689531994
7,tiksi,71.6872,128.8694,4.49,93,100,2.35,RU,1689531994
8,viale,-31.8678,-60.0072,12.82,40,76,3.76,AR,1689531995
9,kavaratti,10.5669,72.642,28.24,80,100,7.21,IN,1689531777
10,west bay,19.3667,-81.4167,33.04,81,20,5.66,KY,1689531995
11,thompson,55.7435,-97.8558,15.09,63,100,3.09,CA,1689531954
12,iqaluit,63.7506,-68.5145,8.85,93,100,2.06,CA,1689531997
13,adamstown,-25.066,-130.1015,20.91,79,100,2.82,PN,1689531998
14,longyearbyen,78.2186,15.6401,13.91,54,0,5.66,SJ,1689531988
15,ilulissat,69.2167,-51.1,4.01,100,100,2.06,GL,1689531998
16,grytviken,-54.2811,-36.5092,-5.5,72,50,2.16,GS,1689531999
17,port-aux-francais,-49.35,70.2167,1.78,58,60,12.81,TF,1689531999
18,sao tome,0.3365,6.7273,24.57,81,91,4.35,ST,1689532000
19,invercargill,-46.4,168.35,8.35,89,65,6.27,NZ,1689532000
20,bubaque,11.2833,-15.8333,27.73,78,69,7.24,GW,1689532001
21,azul,-36.777,-59.8585,9.7,46,2,6.48,AR,1689532001
22,albany,42.6001,-73.9662,27.73,82,100,1.34,US,1689532001
23,neiafu,-18.65,-173.9833,22.38,78,75,4.12,TO,1689532002
24,puerto natales,-51.7236,-72.4875,6.25,56,75,8.75,CL,1689532002
25,crucecita,-28.95,-58.9833,17.59,48,0,3.23,AR,1689532003
26,badger,64.8,-147.5333,18.06,75,100,1.54,US,1689532003
27,atafu village,-8.5421,-172.5159,28.4,75,97,6.69,TK,1689532003
28,waitangi,-43.9535,-176.5597,8.79,96,100,0.45,NZ,1689532004
29,benguela,-12.5763,13.4055,21.13,86,32,0.58,AO,1689532004
30,shanhecun,44.7,127.2,17.47,98,100,3.53,CN,1689532005
31,lihue,21.9789,-159.3672,25.77,75,75,7.2,US,1689532005
32,port lincoln,-34.7333,135.8667,9.0,71,0,2.92,AU,1689531807
33,punta arenas,-53.15,-70.9167,4.06,81,75,5.14,CL,1689532006
34,severobaykal'sk,55.65,109.3167,13.69,79,14,0.9,RU,1689532006
35,anadyr,64.75,177.4833,16.28,77,0,2.0,RU,1689532007
36,kone,-21.0595,164.8658,17.52,70,47,2.35,NC,1689532007
37,port elizabeth,-33.918,25.5701,15.16,82,0,3.09,ZA,1689532007
38,luderitz,-26.6481,15.1594,18.76,46,0,4.45,NA,1689532008
39,margaret river,-33.95,115.0667,15.94,78,86,6.82,AU,1689532008
40,laghouat,33.8,2.8651,36.81,6,0,6.0,DZ,1689532009
41,alofi,-19.0595,-169.9187,19.94,94,100,3.6,NU,1689532009
42,nemuro,43.3236,145.575,12.95,94,100,2.1,JP,1689532009
43,san patricio,28.017,-97.5169,37.87,31,17,5.25,US,1689532010
44,hermanus,-34.4187,19.2345,12.67,87,96,3.93,ZA,1689532010
45,hadibu,12.65,54.0333,25.76,77,49,8.08,YE,1689532011
46,saudarkrokur,65.7461,-19.6394,8.19,77,60,6.65,IS,1689532011
47,avarua,-21.2078,-159.775,22.03,68,100,1.54,CK,1689532012
48,masterton,-40.9597,175.6575,5.04,95,55,1.39,NZ,1689532012
49,lerwick,60.1545,-1.1494,14.0,86,92,5.09,GB,1689532012
50,west island,-12.1568,96.8225,24.99,73,100,6.69,CC,1689532013
51,talnakh,69.4865,88.3972,5.67,90,100,1.43,RU,1689532014
52,puerto ayora,-0.7393,-90.3518,29.98,91,69,3.58,EC,1689532014
53,as sulayyil,20.4607,45.5779,38.14,9,27,4.17,SA,1689532015
54,wailua homesteads,22.0669,-159.378,25.44,81,75,7.2,US,1689532015
55,bethel,41.3712,-73.414,25.47,89,100,1.34,US,1689532016
56,lakatoro,-16.0999,167.4164,24.33,83,75,9.44,VU,1689532016
57,westport,41.1415,-73.3579,26.65,91,100,2.06,US,1689532017
58,aykhal,66.0,111.5,9.66,57,100,3.49,RU,1689532017
59,mancio lima,-7.6142,-72.8958,25.04,78,75,2.06,BR,1689532017
60,yellowknife,62.456,-114.3525,21.29,52,100,6.17,CA,1689532018
61,mil'kovo,55.6078,37.7956,20.27,68,75,2.13,RU,1689532018
62,gobabis,-22.45,18.9667,14.32,29,0,5.15,NA,1689532019
63,plaza huincul,-38.926,-69.2086,6.75,10,8,0.89,AR,1689532019
64,verkhniy mamon,50.1635,40.3832,16.86,80,47,3.53,RU,1689532020
65,college,64.8569,-147.8028,18.1,75,100,1.54,US,1689532020
66,korla,41.7597,86.1469,33.13,17,2,4.51,CN,1689532021
67,klyuchi,52.2667,79.1667,16.27,76,60,3.75,RU,1689532022
68,hawaiian paradise park,19.5933,-154.9731,24.46,92,75,2.57,US,1689532022
69,opuwo,-18.0607,13.84,20.34,25,0,4.71,NA,1689532023
70,port mathurin,-19.6833,63.4167,23.22,77,1,12.47,MU,1689532023
71,ubari,26.5921,12.7805,34.12,13,63,3.79,LY,1689532024
72,swakopmund,-22.6833,14.5333,22.47,75,0,1.34,NA,1689532024
73,georgetown,5.4112,100.3354,27.96,82,20,0.51,MY,1689531839
74,darwin,-12.4611,130.8418,24.99,88,75,1.54,AU,1689532025
75,newberry,34.2746,-81.6187,33.59,38,40,2.2,US,1689532025
76,pont rouge,48.8833,-72.0825,20.16,98,100,2.52,CA,1689532026
77,jamestown,42.097,-79.2353,27.79,62,75,4.12,US,1689531940
78,vuktyl,63.8567,57.3094,18.12,57,82,1.93,RU,1689532027
79,rio grande,-32.035,-52.0986,16.06,59,7,5.92,BR,1689532027
80,st. john's,47.5649,-52.7093,26.27,66,75,7.2,CA,1689532022
81,stanley,54.868,-1.6985,17.16,67,20,8.23,GB,1689532028
82,kapa'a,22.0752,-159.319,26.18,80,75,7.2,US,1689532028
83,aginskoye,51.1,114.53,17.69,64,2,1.24,RU,1689532029
84,petropavlovsk-kamchatsky,53.0452,158.6483,9.33,100,75,0.0,RU,1689532029
85,bredasdorp,-34.5322,20.0403,14.0,80,95,2.68,ZA,1689532030
86,hammerfest,70.6634,23.6821,19.25,55,0,7.2,NO,1689532031
87,dunkwa,5.9656,-1.78,24.07,96,98,0.86,GH,1689532031
88,whitehorse,60.7161,-135.0538,21.17,43,20,6.17,CA,1689531742
89,idri,27.5,13.2667,35.35,12,20,5.7,LY,1689532033
90,isafjordur,66.0755,-23.124,10.02,71,0,6.69,IS,1689532033
91,ta`u,-14.2336,-169.5144,26.24,81,96,7.63,AS,1689532033
92,blackmans bay,-43.0167,147.3167,12.07,63,29,5.88,AU,1689532034
93,ayr,55.4627,-4.6339,15.99,72,75,7.72,GB,1689532034
94,ushuaia,-54.8,-68.3,4.81,65,40,1.03,AR,1689532035
95,ribeira brava,32.65,-17.0667,23.96,45,63,2.77,PT,1689532035
96,mount pearl,47.5166,-52.7813,25.81,66,75,7.2,CA,1689532036
97,remire-montjoly,4.9167,-52.2667,27.02,83,20,3.09,GF,1689532036
98,wanning,18.8003,110.3967,25.16,93,100,3.1,CN,1689532037
99,tanumah,27.1,44.1333,36.04,8,0,4.14,SA,1689532038
100,mendoza,-32.8908,-68.8272,10.74,24,75,4.12,AR,1689531931
101,chonchi,-42.6128,-73.8092,8.4,62,4,1.92,CL,1689532039
102,ribeira grande,38.5167,-28.7,22.22,64,40,5.14,PT,1689532039
103,belmonte,-15.8631,-38.8828,23.56,86,46,3.86,BR,1689532040
104,sinop,41.7711,34.8709,16.6,91,10,0.9,TR,1689532040
105,papatowai,-46.5619,169.4708,9.28,80,64,6.95,NZ,1689532041
106,afaahiti,-17.75,-149.2833,23.93,64,0,2.27,PF,1689532041
107,kailua-kona,19.6406,-155.9956,26.24,79,40,3.09,US,1689532042
108,papao,-17.75,-149.55,24.82,64,3,0.57,PF,1689532043
109,carnarvon,-24.8667,113.6333,15.95,56,0,5.61,AU,1689532043
110,severo-yeniseyskiy,60.3725,93.0408,10.79,99,91,0.97,RU,1689532044
111,pavlovka,52.6897,47.1405,15.68,82,81,4.71,RU,1689532044
112,shilin,24.8188,103.3324,14.83,86,13,1.75,CN,1689532045
113,kariba,-16.5167,28.8,17.16,63,0,0.88,ZW,1689532045
114,pisco,-13.7,-76.2167,21.03,68,100,4.12,PE,1689532046
115,east london,-33.0153,27.9116,12.52,87,0,2.06,ZA,1689531885
116,margate,51.3813,1.3862,18.82,61,100,3.58,GB,1689531994
117,hirara,24.8,125.2833,27.92,94,40,3.6,JP,1689532047
118,odiongan,12.4017,121.9919,27.06,85,100,9.28,PH,1689532048
119,bilibino,68.0546,166.4372,21.62,45,6,0.81,RU,1689532048
120,sitka,57.0531,-135.33,14.94,88,100,1.54,US,1689531835
121,saipan,15.1355,145.701,27.58,100,0,4.12,MP,1689532049
122,shiguai,40.7058,110.2856,19.84,31,0,1.76,CN,1689532050
123,lebu,-37.6167,-73.65,9.73,61,100,6.88,CL,1689532055
124,brookings,44.3114,-96.7984,23.43,59,0,6.17,US,1689532017
125,yeppoon,-23.1333,150.7333,15.88,86,65,5.87,AU,1689532056
126,fiambala,-27.6871,-67.6149,19.39,15,1,3.52,AR,1689532056
127,iskateley,67.6803,53.1512,17.63,81,66,4.02,RU,1689532057
128,qaqortoq,60.7167,-46.0333,5.95,95,100,2.47,GL,1689532057
129,baiao,-2.7906,-49.6717,35.51,33,28,2.5,BR,1689532058
130,puerto baquerizo moreno,-0.9,-89.6,28.55,70,40,6.17,EC,1689532058
131,revda,56.801,59.9303,12.25,97,94,1.96,RU,1689532058
132,florence,43.7667,11.25,33.94,49,0,4.63,IT,1689531878
133,broome,42.2506,-75.833,27.89,79,75,5.14,US,1689532059
134,bayanhongor,46.7167,100.1167,12.82,58,57,1.6,MN,1689532060
135,san pedro pochutla,15.7333,-96.4667,32.84,56,60,3.29,MX,1689532061
136,nuku'alofa,-21.1333,-175.2,20.19,73,20,4.12,TO,1689532062
137,callao,-12.0667,-77.15,23.16,64,100,4.63,PE,1689532063
138,kismayo,-0.3582,42.5454,25.08,79,57,7.64,SO,1689532063
139,vilyuchinsk,52.9306,158.4028,10.15,94,59,0.15,RU,1689532064
140,santa rosalia,27.3167,-112.2833,32.05,59,93,3.63,MX,1689532064
141,nova xavantina,-14.6667,-52.35,36.15,20,5,1.51,BR,1689532065
142,arno,60.1167,18.6333,17.66,61,30,4.54,SE,1689532066
143,tafuna,-14.3358,-170.72,26.97,89,75,6.17,AS,1689532066
144,kittila,67.6647,24.8936,18.08,59,0,4.12,FI,1689532066
145,port alfred,-33.5906,26.891,16.93,55,37,3.67,ZA,1689532067
146,polyarnyy,69.1989,33.4478,14.54,80,32,2.2,RU,1689532067
147,puerto aysen,-45.4,-72.7,3.66,80,79,0.77,CL,1689532068
148,mount gambier,-37.8333,140.7667,6.23,90,69,3.08,AU,1689531835
149,qarauyl,48.9451,79.255,21.42,38,2,2.11,KZ,1689532069
150,flying fish cove,-10.4217,105.6791,23.82,94,100,5.14,CX,1689532069
151,axim,4.8699,-2.2405,25.61,84,96,3.28,GH,1689532070
152,minas de marcona,-15.2119,-75.1103,18.33,55,11,4.81,PE,1689532070
153,champerico,14.3,-91.9167,34.3,64,100,3.36,GT,1689532070
154,enniskillen,54.3461,-7.6413,14.09,81,75,2.78,GB,1689532071
155,santa luzia,-19.7697,-43.8514,24.6,53,20,2.57,BR,1689532071
156,thunder bay,48.4001,-89.3168,15.99,82,100,5.14,CA,1689531829
157,kayyerkan,69.3786,87.7439,5.72,100,100,2.83,RU,1689532072
158,sirte,31.2089,16.5887,27.43,76,1,5.11,LY,1689532072
159,holualoa,19.6228,-155.9522,24.17,79,40,3.09,US,1689532073
160,jajpur,20.85,86.3333,27.84,79,95,3.67,IN,1689532073
161,hasaki,35.7333,140.8333,25.22,87,43,1.63,JP,1689532074
162,vanino,49.0869,140.2543,13.44,96,100,1.09,RU,1689532074
163,isoka,-10.1606,32.6335,14.08,60,0,0.59,ZM,1689532075
164,netanya,32.3329,34.8599,30.01,76,0,0.83,IL,1689531942
165,pishin,30.5803,66.9961,29.47,11,0,0.92,PK,1689532075
166,vorgashor,67.5833,63.95,14.75,86,98,1.37,RU,1689532076
167,bull savanna,17.8868,-77.5902,31.08,60,10,7.9,JM,1689532076
168,tolanaro,-25.0319,46.9987,22.04,68,20,8.23,MG,1689532077
169,novodvinsk,64.4165,40.8122,17.86,71,69,0.1,RU,1689532077
170,la passe,45.5549,-0.8967,21.68,58,3,4.49,FR,1689532078
171,ghadamis,30.1337,9.5007,37.71,7,0,4.33,LY,1689532078
172,vepagunta,17.7784,83.2158,28.83,74,75,4.12,IN,1689532079
173,nadi,-17.8,177.4167,19.0,88,20,2.06,FJ,1689532079
174,miri,4.4148,114.0089,26.08,94,40,1.03,MY,1689531839
175,heunghae,36.1125,129.3522,23.92,93,13,2.71,KR,1689532080
176,shihezi,44.3,86.0333,29.93,20,80,2.43,CN,1689532080
177,amga,60.8953,131.9608,10.08,98,97,0.67,RU,1689532081
178,tambopata,-12.7333,-69.1833,28.94,45,0,2.06,PE,1689532081
179,rumbek,6.802,29.6912,25.19,73,57,2.12,SS,1689532077
180,tura,25.5198,90.2201,24.73,90,100,2.15,IN,1689532082
181,manga,11.6636,-1.0731,31.97,48,43,3.06,BF,1689532083
182,akureyri,65.6835,-18.0878,7.96,81,75,6.17,IS,1689532084
183,flin flon,54.7682,-101.865,17.91,68,75,3.6,CA,1689532084
184,vedaraniyam,10.3667,79.85,28.68,81,99,7.41,IN,1689532084
185,cockburn town,21.4612,-71.1419,28.43,80,1,7.0,TC,1689532080
186,kongsberg,59.6652,9.6465,17.31,91,84,4.56,NO,1689532085
187,hithadhoo,-0.6,73.0833,27.69,74,5,0.82,MV,1689532086
188,taunggyi,20.7833,97.0333,18.42,94,100,0.9,MM,1689532087
189,marsabit,2.3284,37.9899,21.88,41,42,8.08,KE,1689532087
190,olonkinbyen,70.9221,-8.7187,4.23,96,100,9.83,SJ,1689532088
191,burabay,53.0838,70.3138,17.22,78,90,1.9,KZ,1689532088
192,angra do heroismo,38.65,-27.2167,24.51,66,75,1.34,PT,1689532088
193,nova sintra,14.8667,-24.7167,23.07,84,100,3.43,CV,1689532089
194,coleraine,55.1333,-6.6667,15.95,75,61,5.91,GB,1689532016
195,puerto santa,-8.9906,-78.6456,23.63,72,67,4.83,PE,1689532090
196,keflavik,64.0049,-22.5624,14.95,58,0,7.2,IS,1689532090
197,djambala,-2.5447,14.7533,29.06,37,90,1.86,CG,1689532091
198,kruisfontein,-34.0033,24.7314,13.69,56,86,1.76,ZA,1689532091
199,new norfolk,-42.7826,147.0587,12.73,68,41,5.12,AU,1689532092
200,udachny,66.4167,112.4,11.36,53,100,3.19,RU,1689531864
201,itamaraca,-7.7478,-34.8256,23.03,79,8,5.23,BR,1689532093
202,north bend,43.4065,-124.2243,22.92,77,40,7.72,US,1689532093
203,sarykemer,43.0,71.5,27.71,24,8,2.15,KZ,1689532094
204,klaksvik,62.2266,-6.589,9.51,89,100,10.18,FO,1689532095
205,khandud,36.9513,72.318,18.23,46,95,2.9,AF,1689532095
206,el nido,11.1858,119.3956,27.83,78,100,8.43,PH,1689532095
207,kerikeri,-35.2268,173.9474,9.95,90,41,4.0,NZ,1689532096
208,acapulco de juarez,16.8634,-99.8901,31.9,62,75,3.09,MX,1689531915
209,juan griego,11.0817,-63.9655,30.06,67,8,6.5,VE,1689532097
210,kastsyukowka,52.5387,30.9173,23.0,60,0,2.0,BY,1689532097
211,newman,37.3138,-121.0208,39.47,13,92,1.12,US,1689532098
212,kralendijk,12.15,-68.2667,31.99,66,40,10.29,BQ,1689532098
213,ciudad lazaro cardenas,17.9583,-102.2,31.58,65,65,1.84,MX,1689532099
214,haiku-pauwela,20.9219,-156.3051,26.01,64,40,5.14,US,1689532099
215,kosamba,21.4833,72.95,27.84,84,95,6.07,IN,1689532100
216,arkhara,49.4212,130.0842,14.5,94,96,0.96,RU,1689532100
217,riosucio,5.4216,-75.7032,24.45,66,60,0.5,CO,1689532100
218,rusape,-18.5278,32.1284,9.27,51,0,1.25,ZW,1689532101
219,marsh harbour,26.5412,-77.0636,30.1,70,100,5.34,BS,1689532101
220,touros,-5.1989,-35.4608,28.1,64,5,8.17,BR,1689532102
221,zabol,32.25,67.25,26.11,11,2,3.87,AF,1689532102
222,kiunga,-6.1219,141.2906,21.93,95,100,0.68,PG,1689532103
223,colares,38.7992,-9.4469,22.55,50,0,11.32,PT,1689532103
224,twante,16.7167,95.9333,26.07,89,100,2.43,MM,1689532104
225,xique xique,-10.8217,-42.7311,31.02,38,0,3.33,BR,1689532105
226,krasnyy chikoy,50.3643,108.7512,14.96,91,99,1.65,RU,1689532107
227,saltillo,25.4167,-101.0,29.68,20,0,4.12,MX,1689531645
228,tirumullaivasal,11.2333,79.8333,29.58,72,100,5.98,IN,1689532108
229,thal,35.4791,72.2439,19.38,90,77,0.38,PK,1689532108
230,burwell,53.293,0.0346,18.62,81,100,6.21,GB,1689532109
231,itoman,26.1247,127.6694,28.43,88,75,8.23,JP,1689532109
232,berezovo,63.9381,65.0419,17.54,51,43,2.81,RU,1689532109
233,rio blanco,18.8333,-97.15,23.7,79,23,3.32,MX,1689532110
234,sprimont,50.508,5.6599,22.44,45,100,4.6,BE,1689532110
235,djibouti,11.5,42.5,32.87,39,12,3.47,DJ,1689532111
236,qui nhon,13.7667,109.2333,28.14,70,100,4.92,VN,1689532112
237,cuyo,10.8525,121.0086,28.62,78,100,8.16,PH,1689532112
238,khandyga,62.6667,135.6,10.86,78,81,1.1,RU,1689532113
239,puerto gaitan,4.3133,-72.0816,30.33,64,59,1.24,CO,1689532113
240,atamyrat,37.8357,65.2106,32.34,12,0,6.91,TM,1689532114
241,port saint john's,-31.6229,29.5448,17.43,63,4,1.98,ZA,1689532114
242,port hedland,-20.3167,118.5667,15.03,41,0,3.6,AU,1689532115
243,puerto deseado,-47.7503,-65.8938,4.89,45,4,9.78,AR,1689532115
244,hamilton,39.1834,-84.5333,30.14,61,0,4.12,US,1689531512
245,la ronge,55.1001,-105.2842,18.12,55,20,3.09,CA,1689532116
246,urangan,-25.3,152.9,18.65,80,89,4.93,AU,1689532116
247,happy valley-goose bay,53.3168,-60.3315,27.17,50,75,4.12,CA,1689532117
248,midvagur,62.0511,-7.1939,9.46,81,100,7.72,FO,1689532117
249,bogale,16.2833,95.4,26.04,88,100,3.08,MM,1689532118
250,dudinka,69.4058,86.1778,5.9,81,99,3.12,RU,1689532118
251,villa emilio carranza,19.9667,-96.6,31.5,59,49,4.18,MX,1689532119
252,praia da vitoria,38.7333,-27.0667,24.31,73,75,5.63,PT,1689532119
253,shenjiamen,29.9576,122.298,25.82,94,100,4.74,CN,1689532120
254,chiungutwa,-10.8833,38.9833,22.32,57,83,2.36,TZ,1689532120
255,wuwei,37.9281,102.6414,22.94,29,81,1.15,CN,1689532121
256,ha'il,27.5219,41.6907,38.01,10,0,5.14,SA,1689532121
257,petropavlovka,50.6114,105.3196,17.19,85,99,1.21,RU,1689532122
258,krasnogorskoye,52.2953,86.1979,16.64,81,100,1.4,RU,1689532122
259,coquimbo,-29.9533,-71.3436,15.85,77,0,3.09,CL,1689531681
260,forster,-32.1667,152.5167,13.54,100,72,0.54,AU,1689532123
261,fallon,39.4735,-118.7774,37.73,17,75,0.0,US,1689532123
262,kodiak,57.79,-152.4072,12.73,82,75,2.57,US,1689532124
263,prien,30.1819,-93.2738,35.57,62,0,3.6,US,1689532124
264,griffith,41.5284,-87.4237,28.41,54,0,4.12,US,1689532116
265,quellon,-43.1167,-73.6167,7.14,70,40,2.57,CL,1689532125
266,pundong,-7.9522,110.3486,21.87,93,42,1.51,ID,1689532126
267,sisimiut,66.9395,-53.6735,7.09,90,100,2.51,GL,1689532126
268,ishigaki,24.3448,124.1572,27.07,94,75,2.06,JP,1689532126
269,greenville,35.6127,-77.3663,32.29,73,75,4.63,US,1689531927
270,fortuna,40.5982,-124.1573,15.37,96,100,4.63,US,1689532127
271,ust-tsilma,65.441,52.1498,18.89,74,84,1.78,RU,1689532128
272,yaren,-0.5472,166.916,28.52,74,66,4.62,NR,1689532130
273,kulhudhuffushi,6.6221,73.07,28.02,79,85,6.73,MV,1689532131
274,phongsali,21.6833,102.1058,17.64,82,97,0.23,LA,1689532131
275,sirvintos,55.05,24.95,24.35,63,79,4.56,LT,1689532131
276,cidreira,-30.1811,-50.2056,14.86,67,28,5.71,BR,1689532132
277,oberwart,47.2897,16.206,24.36,73,78,1.7,AT,1689532132
278,katsuren-haebaru,26.3369,127.8719,28.43,88,75,7.72,JP,1689532133
279,vernon,50.2581,-119.2691,32.56,22,0,1.54,CA,1689531759
280,mokhsogollokh,61.4681,128.9203,6.85,85,52,0.8,RU,1689532134
281,mahriz,31.5917,54.4318,34.28,11,0,3.81,IR,1689532134
282,marquette,46.5333,-87.6335,21.81,64,84,2.24,US,1689532135
283,abou el hassan,36.4166,1.1962,40.69,60,41,6.03,DZ,1689532135
284,tazovsky,67.4667,78.7,6.66,65,5,3.12,RU,1689532135
285,atherton,53.5237,-2.4935,18.27,64,60,2.68,GB,1689532136
286,eseka,3.65,10.7667,23.76,99,35,1.49,CM,1689532136
287,pingzhuang,42.0372,119.2889,20.05,70,0,0.95,CN,1689532137
288,kapuskasing,49.4169,-82.4331,24.05,43,75,3.6,CA,1689532082
289,parnu,58.3859,24.4971,19.05,100,100,1.54,EE,1689532138
290,paracatu,-17.2222,-46.8747,29.59,34,45,2.18,BR,1689532138
291,port blair,11.6667,92.75,28.02,83,75,6.17,IN,1689532138
292,jipijapa,-1.3333,-80.5833,28.72,78,100,2.38,EC,1689532139
293,decize,46.8285,3.4619,22.82,49,53,1.27,FR,1689532139
294,port moresby,-9.4431,147.1797,21.68,94,20,2.57,PG,1689532140
295,alpena,45.0617,-83.4327,25.18,71,40,2.68,US,1689532001
296,smithers,54.7804,-127.1743,16.18,72,75,1.54,CA,1689532141
297,kingston,17.997,-76.7936,33.47,71,20,10.29,JM,1689532141
298,codrington,-38.2667,141.9667,5.61,93,28,4.61,AU,1689532142
299,tofol,5.3248,163.0078,27.81,80,100,6.23,FM,1689532142
300,aroma,15.8167,36.1333,33.96,36,4,2.24,SD,1689532143
301,houmt el souk,33.8758,10.8575,35.97,41,0,5.14,TN,1689532143
302,vila velha,-20.3297,-40.2925,25.97,65,75,5.66,BR,1689532090
303,lompoc,34.6391,-120.4579,32.66,73,0,3.09,US,1689532145
304,tandil,-37.3217,-59.1332,7.6,48,4,7.06,AR,1689532145
305,nago,26.5881,127.9761,28.47,87,100,8.88,JP,1689532146
306,saint-pierre,-21.3393,55.4781,22.82,78,0,10.29,RE,1689532146
307,mandalgovi,45.7625,106.2708,21.7,41,38,4.15,MN,1689532147
308,merizo village,13.2658,144.6691,26.85,95,70,5.33,GU,1689532147
309,rupert,42.6191,-113.6772,31.97,29,0,4.12,US,1689532148
310,tak bai,6.2595,102.0546,26.99,81,100,2.54,TH,1689532148
311,juneau,58.3019,-134.4197,18.01,91,75,5.14,US,1689531953
312,nizhnyaya tavda,57.6731,66.1725,15.04,75,91,2.5,RU,1689532149
313,shetpe,44.1667,52.1167,24.08,40,72,5.56,KZ,1689532150
314,kuala tungkal,-0.8167,103.4667,24.95,91,67,3.53,ID,1689532150
315,vadso,70.0744,29.7487,19.49,82,0,6.69,NO,1689532151
316,arkhangel'sk,64.5401,40.5433,17.8,70,65,0.28,RU,1689532065
317,castillos,-34.1667,-53.8333,12.39,52,12,6.27,UY,1689532153
318,gamba,-2.65,10.0,21.42,89,10,3.42,GA,1689532154
319,howrah,22.5892,88.3103,28.0,94,40,2.57,IN,1689532019
320,fale old settlement,-9.3852,-171.2468,28.31,75,84,6.55,TK,1689532154
321,famagusta,35.125,33.95,33.78,78,0,2.77,CY,1689532155
322,ardestan,33.3761,52.3694,35.02,9,12,0.72,IR,1689532155
323,hohhot,40.8106,111.6522,16.16,63,0,2.0,CN,1689532156
324,roccella ionica,38.322,16.4009,28.58,62,0,1.64,IT,1689532156
325,bonthe,7.5264,-12.505,26.21,82,90,4.03,SL,1689532157
326,nacala,-14.5428,40.6728,22.15,76,10,5.03,MZ,1689531993
327,avenal,36.0041,-120.129,38.08,16,97,0.66,US,1689532158
328,timmins,48.4669,-81.3331,19.9,56,100,1.03,CA,1689532158
329,molde,62.7375,7.1591,17.91,82,40,3.6,NO,1689532159
330,cutral-co,-38.9469,-69.2089,6.62,10,8,0.89,AR,1689532159
331,barranca,-10.75,-77.7667,22.37,69,65,4.97,PE,1689532160
332,dunedin,-45.8742,170.5036,8.78,53,50,0.89,NZ,1689532160
333,palmer,42.1584,-72.3287,25.08,86,100,4.63,US,1689532160
334,kamyshin,50.0983,45.416,18.17,74,99,5.85,RU,1689532031
335,ust'-ilimsk,58.0006,102.6619,15.52,96,89,2.2,RU,1689532161
336,obo,5.3998,26.4869,24.7,67,17,1.81,CF,1689532162
337,zhuanghe,39.7008,122.9911,20.26,84,1,2.67,CN,1689532162
338,bom conselho,-9.1697,-36.6797,23.01,70,64,5.5,BR,1689532162
339,mo i rana,66.3128,14.1428,16.29,93,75,1.54,NO,1689532163
340,cape coast,5.1053,-1.2466,26.13,84,94,4.45,GH,1689532163
341,laojunmiao,39.8333,97.7333,23.78,23,0,3.53,CN,1689532164
342,kattivakkam,13.2167,80.3167,31.05,84,100,4.28,IN,1689532164
343,neufchateau,48.35,5.7,23.3,36,32,4.23,FR,1689532164
344,n'zeto,-7.2312,12.8666,21.09,89,1,3.6,AO,1689532165
345,utrik,11.2278,169.8474,27.68,79,98,6.89,MH,1689532165
346,san-pedro,4.7485,-6.6363,25.78,85,81,3.91,CI,1689532166
347,keningau,5.3378,116.1602,22.33,92,93,0.38,MY,1689532119
348,san antonio de pale,-1.4014,5.6325,23.03,81,8,5.25,GQ,1689532167
349,vila franca do campo,37.7167,-25.4333,22.23,64,46,1.61,PT,1689532167
350,guane,22.2025,-84.0875,35.2,46,18,2.97,CU,1689532168
351,bismarck,46.8083,-100.7837,21.91,53,0,6.69,US,1689532169
352,murzuq,25.9155,13.9184,33.18,11,29,4.19,LY,1689532169
353,cabo san lucas,22.8909,-109.9124,34.23,73,20,4.12,MX,1689532079
354,enewetak,11.3474,162.3373,27.95,80,93,7.09,MH,1689532170
355,corinto,37.9407,22.9573,32.16,47,0,1.85,GR,1689531980
356,olyokminsk,60.3736,120.4264,9.18,69,6,1.97,RU,1689532171
357,jwaneng,-24.6004,24.7303,13.58,33,0,2.68,BW,1689532171
358,galesong,-5.3166,119.3661,21.01,81,23,4.43,ID,1689532171
359,geraldton,-28.7667,114.6,4.23,87,0,4.12,AU,1689532012
360,coahuayana de hidalgo,18.7,-103.6583,34.29,53,83,2.58,MX,1689532172
361,abong mbang,3.9833,13.1833,24.6,78,91,0.73,CM,1689532173
362,palikir - national government center,6.9248,158.1611,27.21,81,100,6.72,FM,1689532173
363,ponta delgada,37.7333,-25.6667,22.4,64,75,4.12,PT,1689532175
364,iranshahr,27.2025,60.6848,38.19,28,0,5.14,IR,1689532175
365,saint-francois,46.4154,3.9054,23.15,49,0,3.09,FR,1689532176
366,canutama,-6.5339,-64.3831,34.39,43,81,1.12,BR,1689532176
367,malango,-2.9627,119.9001,17.84,97,78,0.73,ID,1689532177
368,motueka,-41.1333,173.0167,5.61,79,4,2.07,NZ,1689532178
369,lazaro cardenas,17.9583,-102.2,31.58,65,65,1.84,MX,1689532178
370,querecotillo,-4.8378,-80.6456,30.87,44,66,2.9,PE,1689532178
371,naze,28.3667,129.4833,27.51,85,84,6.82,JP,1689532179
372,camarinas,43.1311,-9.1817,21.07,65,9,4.19,ES,1689532180
373,pacific grove,36.6177,-121.9166,25.77,79,0,4.47,US,1689532180
374,jumla,29.2747,82.1838,17.38,94,81,0.53,NP,1689532181
375,bardai,11.65,7.2333,30.03,45,38,3.34,NG,1689532181
376,krizevci,46.0219,16.5425,30.77,67,0,1.55,HR,1689532181
377,tromso,69.6496,18.957,19.01,59,40,7.72,NO,1689532182
378,cedeira,43.6797,-8.0209,19.43,69,12,3.64,ES,1689532182
379,naryn,41.4287,75.9911,18.4,61,100,3.45,KG,1689532183
380,dolores,-36.3132,-57.6792,10.49,52,11,6.13,AR,1689532183
381,kangding,30.0513,101.9603,12.27,91,68,0.27,CN,1689532183
382,tamanrasset,22.785,5.5228,31.95,22,40,2.06,DZ,1689532184
383,isangel,-19.55,169.2667,22.06,78,20,2.57,VU,1689532184
384,ibi,38.6253,-0.5723,25.74,86,56,1.67,ES,1689532185
385,letlhakeng,-24.0944,25.0298,13.64,34,1,2.34,BW,1689532185
386,dauphin,51.1494,-100.0502,15.08,72,100,5.14,CA,1689532186
387,la'ie,21.6477,-157.9253,26.35,81,17,1.34,US,1689532186
388,waingapu,-9.6567,120.2641,22.4,84,62,3.92,ID,1689532186
389,samarinda,-0.5,117.15,23.11,97,97,1.05,ID,1689532187
390,mushie,-3.0167,16.9,30.49,26,4,1.71,CD,1689532187
391,sinabang,2.4803,96.3801,26.16,84,63,1.82,ID,1689532188
392,krasnyy kholm,58.0607,37.1203,16.69,72,47,2.49,RU,1689532188
393,imbituba,-28.24,-48.6703,19.36,70,1,3.82,BR,1689532189
394,antalya,36.7741,30.7178,35.33,33,0,0.51,TR,1689532189
395,samitah,16.596,42.9444,34.25,45,3,3.17,SA,1689532189
396,urengoy,65.9667,78.3667,8.75,52,8,1.67,RU,1689532190
397,al ghayzah,16.2079,52.176,26.32,89,86,6.58,YE,1689532190
398,ipameri,-17.7219,-48.1597,29.58,30,23,1.08,BR,1689532191
399,carutapera,-1.195,-46.02,27.53,82,32,3.81,BR,1689532191
400,kloulklubed,7.0419,134.2556,26.28,83,100,8.09,PW,1689532191
401,sur,22.5667,59.5289,32.24,57,87,4.66,OM,1689532192
402,gambela,8.25,34.5833,22.29,86,50,1.19,ET,1689532193
403,tidjikja,18.5564,-11.4271,34.51,29,91,6.94,MR,1689532193
404,roscommon,53.6333,-8.1833,13.95,84,81,3.89,IE,1689532193
405,porto novo,6.4965,2.6036,27.9,80,86,3.94,BJ,1689532194
406,mossel bay,-34.1831,22.146,11.96,77,84,0.31,ZA,1689532195
407,tieli,46.95,128.05,15.3,94,100,1.67,CN,1689532195
408,abepura,-2.6333,140.5833,23.45,88,20,3.09,ID,1689532195
409,besisahar,28.2313,84.3761,24.51,94,100,0.76,NP,1689532196
410,kawambwa,-9.7915,29.0791,18.27,46,3,3.6,ZM,1689532197
411,agogo,6.8,-1.0819,22.7,95,92,1.76,GH,1689532197
412,iskushuban,10.2837,50.23,31.7,37,81,11.1,SO,1689532198
413,tandalti,13.0167,31.8667,32.86,38,24,5.09,SD,1689532198
414,suva,-18.1416,178.4415,20.71,94,75,3.09,FJ,1689532199
415,trincomalee,8.5711,81.2335,28.27,74,96,6.81,LK,1689532199
416,elmina,5.0898,-1.348,26.01,85,95,4.05,GH,1689532200
417,dadukou,26.5479,101.7054,21.27,63,15,0.49,CN,1689532200
418,moyale,3.5167,39.0584,21.91,55,97,1.93,KE,1689532201
419,taraz,42.9,71.3667,27.23,24,4,6.0,KZ,1689532202
420,santiago de cao,-7.9589,-79.2392,24.07,73,20,5.14,PE,1689532203
421,novyy turtkul',41.55,61.0167,27.95,19,63,4.28,UZ,1689532204
422,humaita,-7.5061,-63.0208,31.77,51,100,1.05,BR,1689532205
423,wauchope,-31.45,152.7333,12.76,99,90,1.46,AU,1689532206
424,tepalcatepec,19.1833,-102.85,35.38,40,17,1.52,MX,1689532206
425,calvinia,-31.4707,19.776,12.26,57,100,1.02,ZA,1689532207
426,esperanza,19.5847,-70.9849,34.32,58,88,3.13,DO,1689532195
427,lebyazh'ye,55.2689,66.4947,15.86,86,98,3.28,RU,1689532208
428,badiyah,22.45,58.8,30.31,51,87,3.06,OM,1689532208
429,kotma,23.2,81.9667,26.23,81,100,2.36,IN,1689532209
430,puerto armuelles,8.2833,-82.8667,30.99,84,100,1.34,PA,1689532210
431,winburg,-28.518,27.0093,9.23,45,0,2.31,ZA,1689532210
432,rimavska sobota,48.3828,20.0224,24.29,66,18,0.66,SK,1689532211
433,brandon,27.9378,-82.2859,33.38,84,40,2.06,US,1689531676
434,punta de bombon,-17.1717,-71.7931,18.23,75,74,3.42,PE,1689532211
435,paducah,37.0834,-88.6001,31.77,50,0,3.09,US,1689532212
436,christchurch,-43.5333,172.6333,6.38,90,38,1.54,NZ,1689532169
437,tommot,58.9564,126.2925,9.27,94,0,0.49,RU,1689532213
438,carbonear,47.7332,-53.2148,26.53,80,14,3.25,CA,1689532213
439,berdigestyakh,62.0989,126.6992,5.99,81,7,0.68,RU,1689532214
440,mayfield,36.7417,-88.6367,32.06,53,0,1.54,US,1689531931
441,lata,40.1629,-8.3327,20.6,57,45,3.36,PT,1689532215
442,kristiansund,63.1115,7.732,20.36,56,0,2.57,NO,1689532215
443,lorengau,-2.0226,147.2712,27.48,80,21,4.31,PG,1689532216
444,tavda,58.0425,65.2726,13.86,78,100,2.22,RU,1689532216
445,tostado,-29.232,-61.7692,16.1,61,16,0.89,AR,1689532217
446,okulovka,58.4008,33.2908,16.7,80,20,1.82,RU,1689532217
447,mamuju,-2.6748,118.8885,24.56,85,100,1.84,ID,1689532218
448,yukhnov,54.7444,35.2297,18.26,67,100,0.92,RU,1689532218
449,otjiwarongo,-20.4637,16.6477,14.85,24,0,5.1,NA,1689532157
450,weno,7.4515,151.8468,27.97,89,75,3.6,FM,1689532219
451,al 'aziziyah,32.9058,45.0616,38.49,7,0,4.07,IQ,1689532219
452,daira din panah,30.5702,70.9361,35.14,45,100,3.76,PK,1689532220
453,constitucion,-35.3333,-72.4167,11.94,46,100,2.49,CL,1689532018
454,minden,52.2833,8.9167,24.02,47,79,5.66,DE,1689531811
455,dizangue,3.7667,9.9833,23.93,96,36,1.49,CM,1689532223
456,formosa do rio preto,-11.0483,-45.1931,33.56,22,3,3.27,BR,1689532223
457,cill airne,52.05,-9.5167,16.03,77,75,6.69,IE,1689532224
458,huangnihe,43.5583,128.0239,16.84,97,91,1.34,CN,1689532224
459,ratchaburi,13.5833,99.5333,26.75,69,100,5.65,TH,1689532225
460,vorkuta,67.5,64.0,14.03,90,72,2.41,RU,1689532225
461,mora,11.0461,14.1401,30.42,42,10,3.28,CM,1689532226
462,saint-joseph,-21.3667,55.6167,22.21,83,29,6.4,RE,1689532226
463,santa ines,-3.6667,-45.38,26.68,73,96,1.12,BR,1689532227
464,saldanha,-33.0117,17.9442,13.03,90,100,2.6,ZA,1689532227
465,salahonda,2.1019,-78.7217,27.93,78,65,4.7,CO,1689532228
466,jaumave,23.4167,-99.3833,34.93,18,3,2.67,MX,1689532229
467,colonia menno,-22.3667,-59.8167,19.13,46,100,3.36,PY,1689532229
468,kiama,-34.6833,150.8667,9.14,85,37,1.66,AU,1689532230
469,panacan,9.2463,118.4082,27.15,80,100,3.67,PH,1689532231
470,uri,34.0833,74.0333,21.73,89,2,0.95,IN,1689532236
471,huron,41.1501,-82.5499,27.76,65,0,6.66,US,1689532237
472,zhanaozen,43.3,52.8,25.16,39,66,6.82,KZ,1689532238
473,siwa oasis,29.2041,25.5195,35.83,22,0,9.63,EG,1689532238
474,fort mcmurray,56.7268,-111.381,22.77,53,20,5.66,CA,1689532241
475,fairmont,39.4851,-80.1426,29.94,65,11,0.89,US,1689532242
476,ciudad acuna,29.3232,-100.9522,38.01,43,0,4.12,MX,1689532130
477,kisangani,0.5167,25.2,25.29,65,37,1.09,CD,1689532244
478,ennis,52.8436,-8.9864,15.96,72,40,6.17,IE,1689531972
479,ancud,-41.8697,-73.8203,6.5,63,7,3.62,CL,1689532247
480,burang,30.25,81.1667,11.8,76,90,2.24,CN,1689532248
481,askino,56.0901,56.5783,15.81,88,100,5.5,RU,1689532248
482,blenheim,-41.516,173.9528,5.21,87,1,3.13,NZ,1689532249
483,ciudad constitucion,25.0369,-111.6644,36.76,28,20,1.93,MX,1689532249
484,sihanoukville,10.6093,103.5296,24.97,94,75,2.57,KH,1689532249
485,mangrol,21.1167,70.1167,27.9,82,25,4.96,IN,1689532250
486,taro,-8.3862,115.28,22.0,94,66,1.19,ID,1689532250
487,palasa,18.7667,84.4167,27.06,83,100,3.38,IN,1689532251
488,fort bragg,35.139,-79.006,34.34,56,0,5.14,US,1689532252
489,pervomayskoye,43.919,46.7102,17.98,86,100,5.56,RU,1689532252
490,al jawf,29.5,38.75,34.16,11,5,3.57,SA,1689532252
491,feijo,-8.1642,-70.3536,31.9,48,99,0.92,BR,1689532253
492,minakuchicho-matoba,34.9667,136.1667,25.14,94,4,1.05,JP,1689532253
493,kaga bandoro,6.9896,19.1874,24.16,82,5,1.13,CF,1689532254
494,padangsidempuan,1.3667,99.2667,21.15,98,100,0.56,ID,1689532254
495,hacienda huancane,-15.8222,-70.8856,11.88,15,6,3.24,PE,1689532255
496,nouadhibou,20.931,-17.0347,24.99,65,8,11.83,MR,1689532255
497,walvis bay,-22.9575,14.5053,22.53,35,0,1.03,NA,1689532255
498,diego de almagro,-26.3667,-70.05,24.38,13,100,3.47,CL,1689532256
499,mahanoro,-19.9,48.8,19.29,84,62,2.0,MG,1689532256
500,hutchinson,38.0608,-97.9298,33.97,33,0,5.66,US,1689532174
501,vila do maio,15.1333,-23.2167,29.44,81,55,3.25,CV,1689532257
502,monroeville,40.4212,-79.7881,29.24,53,0,2.68,US,1689532257
503,mocimboa,-11.3167,40.35,21.69,86,10,3.61,MZ,1689532258
504,kirensk,57.7853,108.1119,14.16,94,100,1.2,RU,1689532258
505,long beach,33.767,-118.1892,34.35,72,0,3.09,US,1689532258
506,sinanpasa,38.7444,30.2428,20.63,41,0,2.85,TR,1689532163
507,olaine,56.7853,23.9381,19.4,100,40,2.06,LV,1689532259
508,tynda,55.1667,124.7167,15.04,81,18,0.75,RU,1689532260
509,marsa alam,25.0757,34.8918,33.42,40,4,1.71,EG,1689532260
510,charqueada,-22.5097,-47.7781,26.49,41,8,2.57,BR,1689532261
511,kondapalle,16.6167,80.5333,27.92,71,100,2.62,IN,1689532261
512,bullsbrook,-31.6667,116.0,11.06,83,0,2.06,AU,1689532261
513,boguchany,58.3814,97.4531,13.35,92,100,1.62,RU,1689532262
514,vytegra,61.0064,36.4481,17.04,70,93,1.2,RU,1689532262
515,balykshi,47.0667,51.8667,22.0,49,40,4.0,KZ,1689532263
516,taroa,8.7058,171.2275,27.69,76,28,4.99,MH,1689532264
517,sierra grande,-41.606,-65.3557,4.59,37,0,10.42,AR,1689532264
518,yuzhno-kurilsk,44.0306,145.8556,12.85,94,100,0.54,RU,1689532265
519,labrador city,52.9463,-66.9114,23.95,53,40,3.6,CA,1689532209
520,pocone,-16.2567,-56.6228,36.02,20,0,1.34,BR,1689532266
521,hagere hiywet,8.9833,37.85,15.19,91,77,1.56,ET,1689532266
522,rantepao,-2.9701,119.8978,17.9,96,100,0.8,ID,1689532268
523,altai,46.3722,96.2583,18.9,27,21,0.97,MN,1689532268
524,salalah,17.0151,54.0924,26.02,90,100,3.46,OM,1689532269
525,port macquarie,-31.4333,152.9167,12.72,90,94,3.36,AU,1689532269
526,surin,14.8818,103.4936,29.39,99,100,4.89,TH,1689532270
527,magadan,59.5667,150.8,11.76,85,100,0.69,RU,1689532270
528,ulan bator,47.9077,106.8832,13.07,82,20,1.0,MN,1689532233
529,constantia,44.1833,28.65,25.39,67,0,4.7,RO,1689532271
530,puerto lleras,3.0223,-73.4044,27.96,76,67,0.74,CO,1689532272
531,iquique,-20.2208,-70.1431,20.02,67,31,3.34,CL,1689532272
532,kirando,-7.4167,30.6,23.65,51,14,2.32,TZ,1689532273
533,shevchenko,48.5,35.0,21.05,47,0,2.0,UA,1689532273
534,fort st. john,56.2499,-120.8529,18.94,68,100,2.57,CA,1689532274
535,isola di capo rizzuto,38.96,17.0933,32.41,48,0,2.57,IT,1689532274
536,nuuk,64.1835,-51.7216,9.34,100,100,1.54,GL,1689532275
537,varkaus,62.3153,27.873,20.73,59,100,3.46,FI,1689532275
538,harper,4.375,-7.7169,25.22,86,71,4.23,LR,1689532276
539,kununurra,-15.7667,128.7333,24.99,44,5,5.66,AU,1689532276
540,lucelia,-21.7203,-51.0189,23.91,40,94,2.23,BR,1689532277
541,queenstown,-31.8976,26.8753,10.89,44,88,1.8,ZA,1689532277
542,wahpeton,46.2652,-96.6059,22.01,46,75,7.72,US,1689532278
543,armidale,-30.5167,151.65,4.41,97,9,2.03,AU,1689532278
544,togur,58.3631,82.8265,12.14,86,0,3.22,RU,1689532279
545,pathein,16.7833,94.7333,25.77,92,100,2.5,MM,1689532279
546,sambava,-14.2667,50.1667,22.32,77,45,4.06,MG,1689532280
547,chibougamau,49.9168,-74.3659,20.79,88,75,3.09,CA,1689532280
548,morganton,35.7454,-81.6848,32.56,56,0,3.13,US,1689532281
549,kingscliff,-28.2667,153.5667,15.98,82,8,1.54,AU,1689532281
550,viedma,-40.8135,-62.9967,7.17,65,100,9.13,AR,1689532281
551,filadelfia,39.9523,-75.1638,26.75,93,100,1.54,US,1689532282
552,ola,59.5833,151.2833,11.65,89,100,0.88,RU,1689532283
553,campoverde,-8.4753,-74.8058,26.83,48,63,1.13,PE,1689532284
554,frontera,26.9333,-101.45,34.62,36,5,1.34,MX,1689532284
555,sonargaon,23.6422,90.6023,28.03,87,100,3.77,BD,1689532285
556,talcahuano,-36.7167,-73.1167,11.82,58,0,4.63,CL,1689532285
557,jerseyville,39.12,-90.3285,33.14,31,54,5.61,US,1689532286
558,bauru,-22.3147,-49.0606,26.52,38,0,3.09,BR,1689532073
559,east ballina,-28.8667,153.5833,12.67,83,41,3.76,AU,1689532286
560,nema,57.5067,50.5011,17.88,63,99,3.06,RU,1689532287
561,jiwani,25.05,61.7417,28.64,80,97,5.13,PK,1689532287
562,acarau,-2.8856,-40.12,28.91,65,61,7.3,BR,1689532288
563,ballina,-28.8667,153.5667,12.66,85,41,3.6,AU,1689532288
564,malgrat de mar,41.6466,2.7414,28.31,70,0,3.13,ES,1689531781
565,vylkove,45.4021,29.586,22.5,64,0,3.63,UA,1689532290
566,bandarbeyla,9.4942,50.8122,24.08,84,92,14.16,SO,1689532290
567,madalena,41.2162,-8.3345,22.53,61,100,3.43,PT,1689532291
568,wenatchee,47.4235,-120.3103,34.79,28,0,1.54,US,1689532253
569,batticaloa,7.7102,81.6924,27.67,73,98,1.89,LK,1689532292
570,balsas,-7.5325,-46.0356,36.46,19,4,3.55,BR,1689532292
571,imuris,30.7833,-110.8667,36.58,29,100,1.57,MX,1689532293
572,shalya,57.2471,58.7298,11.26,98,82,2.43,RU,1689532293
573,sandnessjoen,66.0217,12.6316,16.29,88,75,3.09,NO,1689532294
574,selkirk,50.1436,-96.8845,19.49,68,79,7.46,CA,1689532206
575,okhotsk,59.3833,143.3,13.97,90,100,0.87,RU,1689532294
576,fort payne,34.4442,-85.7197,32.07,50,40,3.09,US,1689532295
577,nyaunglebin,17.95,96.7333,25.19,91,100,1.47,MM,1689532295
578,sergeyevka,53.88,67.4158,15.83,82,2,3.75,KZ,1689532296
579,floro,61.5996,5.0328,16.04,77,75,14.4,NO,1689532154
580,pariaman,-0.619,100.12,24.03,89,30,1.6,ID,1689532297
581,nar'yan-mar,67.6713,53.087,16.02,83,31,4.11,RU,1689532297
582,nyagan,62.1406,65.3936,16.52,56,40,2.22,RU,1689532298
583,phillip island,-38.4835,145.231,8.04,83,1,5.41,AU,1689532086
584,matane,48.8286,-67.522,19.39,92,100,3.02,CA,1689532259
585,nizhniy kuranakh,58.8353,125.4869,9.53,95,4,0.72,RU,1689532299
586,fukuchiyama,35.3,135.1167,24.37,94,50,1.77,JP,1689532300
587,cannonvale,-20.2833,148.7,18.66,82,92,7.43,AU,1689532300
588,baranchinskiy,58.1617,59.6991,14.44,87,100,1.18,RU,1689532301
589,teknaf,20.8624,92.3058,25.98,91,100,3.85,BD,1689532301
590,nova vicosa,-17.8919,-39.3719,24.32,71,80,3.67,BR,1689532301
591,karukh,34.4811,62.5863,25.48,20,0,5.96,AF,1689532302
